stop_id,stop_name,stop_lat,stop_lon
8507492,Interlaken Ost,46.690502,7.869003999999999
8507493,Interlaken West,46.682951,7.851367
8507483,Spiez,46.686394,7.680096000000001
8507100,Thun,46.754694,7.629415
8507000,Bern,46.948825,7.439122
8500218,Olten,47.351929,7.907685000000001
8500023,Liestal,47.484376,7.731352
8500010,Basel SBB,47.547408000000004,7.589548
8000026,Basel Bad Bf,47.567292,7.607805
8000107,Freiburg(Breisgau) Hbf,47.997696000000005,7.8411740000000005
8000290,Offenburg,48.476479,7.946725
8000191,Karlsruhe Hbf,48.993512,8.402181
8000244,Mannheim Hbf,49.479352,8.468917
8000105,Frankfurt(Main)Hbf,50.107149,8.663785
8000150,Hanau Hbf,50.120957000000004,8.929003
8000115,Fulda,50.554722,9.68398
8003200,Kassel-Wilhelmshöhe,51.313115,9.446899
8000128,Göttingen,51.536812,9.926069
8000169,Hildesheim Hbf,52.160627000000005,9.953495
8000049,Braunschweig Hbf,52.252218,10.540293
8006552,Wolfsburg Hbf,52.429494999999996,10.787784
8010404,Berlin-Spandau,52.53465,13.196902
8011160,Berlin Hbf,52.525589000000004,13.369549
8010255,Berlin Ostbahnhof,52.510487,13.434683999999999
8003487,Hannover Messe/Laatzen,52.316896,9.792867
8000774,Baden-Baden,48.790329,8.190827
8098160,Berlin Hbf (tief),52.525589000000004,13.369549
8002041,Frankfurt(Main)Süd,50.099365,8.686456
8000152,Hannover Hbf,52.376764,9.741017
8000064,Celle,52.620965000000005,10.062633
8000168,Uelzen,52.969781999999995,10.553057
8000238,Lüneburg,53.249652000000005,10.419891
8000147,Hamburg-Harburg,53.455909999999996,9.991699
8002549,Hamburg Hbf,53.552732999999996,10.006909
8002548,Hamburg Dammtor,53.560751,9.989569
8002553,Hamburg-Altona,53.552696999999995,9.935175
8002042,Frankfurt(Main)West,50.118862,8.639335
8000207,Köln Hbf,50.943028999999996,6.95873
8003330,Köln/Bonn Flughafen,50.8789,7.119304
8005556,Siegburg/Bonn,50.793915999999996,7.203028999999999
8000667,Montabaur,50.444838,7.825335000000001
8003680,Limburg Süd,50.382498,8.096108000000001
8070003,Frankfurt(M) Flughafen Fernbf,50.053169,8.570181
8000010,Aschaffenburg Hbf,49.980554,9.143692999999999
8000260,Würzburg Hbf,49.801795,9.935777
8000284,Nürnberg Hbf,49.445615000000004,11.082989
8000183,Ingolstadt Hbf,48.744538,11.437335000000001
8000261,München Hbf,48.140229,11.558339
8004158,München-Pasing,48.149856,11.461876
8000013,Augsburg Hbf,48.365444000000004,10.885568
8000139,Günzburg,48.460335,10.278653
8000170,Ulm Hbf,48.399433,9.982224
8000302,Plochingen,48.713084,9.410807
8000096,Stuttgart Hbf,48.784081,9.181636
8000235,Ludwigsburg,48.891861999999996,9.18542
8006053,Vaihingen(Enz),48.948116,8.957633999999999
8000299,Pforzheim Hbf,48.894154,8.703095
8003184,Karlsruhe-Durlach,49.00233,8.462823
8000055,Bruchsal,49.124619,8.589651
8006421,Wiesloch-Walldorf,49.291351,8.664145
8000156,Heidelberg Hbf,49.403564,8.675444
8000087,Solingen Hbf,51.160765999999995,7.004188
8000266,Wuppertal Hbf,51.254362,7.149544000000001
8000142,Hagen Hbf,51.362745000000004,7.460247
8000080,Dortmund Hbf,51.517899,7.459294
8000180,Waiblingen,48.826124,9.29988
8000009,Ansbach,49.29803,10.578236
8000044,Bonn Hbf,50.732008,7.097136
8000041,Bochum Hbf,51.478607000000004,7.223273
8000098,Essen Hbf,51.451351,7.0147949999999994
8000086,Duisburg Hbf,51.429786,6.775907000000001
8000085,Düsseldorf Hbf,51.21996,6.7943169999999995
8073368,Köln Messe/Deutz Gl.11-12,50.941717,6.9740649999999995
8000001,Aachen Hbf,50.767803,6.091495
8000403,Aachen Süd(Gr),50.731918,6.045408
8800012,Liège-Guillemins,50.624362,5.56648
8800002,Bruxelles-Nord,50.860239,4.361458
8800004,Bruxelles Midi,50.835375,4.335694999999999
8002187,Garmisch-Partenkirchen,47.49145,11.097013
8004506,Oberau,47.559274,11.139271
8004185,Murnau,47.682264,11.192631
8000220,Weilheim(Oberbay),47.845365,11.142858
8005927,Tutzing,47.907138,11.272886999999999
8000082,Düsseldorf Flughafen,51.292009,6.786838
8000240,Mainz Hbf,50.001113000000004,8.258723
8000250,Wiesbaden Hbf,50.070788,8.243729
8000068,Darmstadt Hbf,49.872504,8.629635
8000149,Hamm(Westf),51.678077,7.807824
8000076,Soest,51.578423,8.104593
8000571,Lippstadt,51.670688,8.348785000000001
8000297,Paderborn Hbf,51.712982000000004,8.740508
8000004,Altenbeken,51.766432,8.943323
8000196,Warburg(Westf),51.492953,9.163846000000001
8000262,München Ost,48.127437,11.604975
8000286,Oberhausen Hbf,51.474876,6.851586999999999
8001774,Emmerich(Gr),51.90119,6.1376550000000005
8400071,Arnhem Centraal,51.98478,5.9010050000000005
8400621,Utrecht Centraal,52.089397,5.109864
8400058,Amsterdam Centraal,52.379191,4.899426999999999
8000025,Bamberg,49.900757,10.899493
8010101,Erfurt Hbf,50.97255,11.038502000000001
8012478,Leipzig Messe,51.396149,12.389275
8010205,Leipzig Hbf,51.346546000000004,12.383333
8000253,Mönchengladbach Hbf,51.196579,6.446111
8003155,Venlo(Gr),51.340892,6.192714
8000274,Neuss Hbf,51.204355,6.6845229999999995
8400644,Venlo,51.364408000000005,6.171841000000001
8000036,Bielefeld Hbf,52.029259,8.532722999999999
8700011,Paris Est,48.876976,2.35912
8700023,Strasbourg,48.585339000000005,7.734067
8000008,Kehl(Gr),48.575648,7.801117999999999
8002021,Forbach(fr),49.214089,6.944311
8000323,Saarbrücken Hbf,49.241066,6.9910190000000005
8000189,Kaiserslautern Hbf,49.436141,7.768712
8700271,Forbach(F),49.189215999999995,6.9002550000000005
8011102,Berlin Gesundbrunnen,52.548961,13.388516000000001
8000206,Koblenz Hbf,50.350928,7.588342999999999
8000050,Bremen Hbf,53.083478,8.813833
8000294,Osnabrück Hbf,52.272849,8.061778
8000263,Münster(Westf)Hbf,51.956563,7.635716
8000309,Regensburg Hbf,49.01167,12.099615
8000301,Plattling,48.779621999999996,12.863941
8000298,Passau Hbf,48.573634999999996,13.450775
8100013,Linz Hbf,48.290178000000004,14.292129000000001
8100008,St.Pölten Hbf,48.208304,15.624672
8100514,Wien Meidling,48.174451,16.333085
8103000,Wien Hbf,48.184923,16.375865
8011113,Berlin Südkreuz,52.47504300000001,13.365314999999999
8010222,Lutherstadt Wittenberg Hbf,51.867813,12.662286
8100014,Wels Hbf,48.166082,14.026570000000001
8100024,Schärding,48.463724,13.442514000000001
8011956,Jena Paradies,50.924853000000006,11.587464
8010240,Naumburg(Saale)Hbf,51.163067,11.796985000000001
8010368,Weißenfels,51.204615000000004,11.970925999999999
8010159,Halle(Saale)Hbf,51.477509999999995,11.987088
8010050,Bitterfeld,51.622857,12.316849000000001
8011191,Ostseebad Binz,54.404819999999994,13.600508
8010033,Bergen auf Rügen,54.420497,13.417821
8010338,Stralsund Hbf,54.308627,13.077318
8010139,Greifswald,54.092921,13.370258999999999
8010396,Züssow,53.973877,13.548191000000001
8011044,Anklam,53.856101,13.701826
8010268,Pasewalk,53.515356000000004,13.988878
8010282,Prenzlau,53.321611,13.866535
8010004,Angermünde,53.015223,13.996357000000001
8010093,Eberswalde Hbf,52.83401800000001,13.797057999999998
8010036,Berlin-Lichtenberg,52.510137,13.496692000000001
8001844,Erlangen,49.595896999999994,11.001907000000001
8010097,Eisenach,50.976919,10.331986
8010136,Gotha,50.939074,10.712571
8013470,Bernau(b Berlin),52.675655000000006,13.592463
8010382,Wittenberge,53.003114000000004,11.762871
8010216,Ludwigslust,53.334672,11.494489
8010355,Velgast,54.277317000000004,12.803138
8010304,Rostock Hbf,54.078242,12.131078
8010250,Neustrelitz Hbf,53.359258,13.074603
8000078,Donauwörth,48.714028000000006,10.771441000000001
8010361,Waren(Müritz),53.521513,12.680678
8013236,Warnemünde,54.176854000000006,12.091273
8000122,Treuchtlingen,48.961267,10.908158
8000199,Kiel Hbf,54.31498199999999,10.131976
8000271,Neumünster,54.075752,9.979814999999999
8001338,Coburg,50.263094,10.957374
8000228,Lichtenfels,50.14645,11.059474
8000020,Bad Hersfeld,50.869632,9.71618
8001920,Esslingen(Neckar),48.738811,9.300078
8006730,Neu-Ulm,48.393041,10.004823
8010366,Weimar,50.99149,11.326462
8010085,Dresden Hbf,51.040562,13.732039000000002
8010089,Dresden-Neustadt,51.065903000000006,13.740704000000001
8010297,Riesa,51.309653999999995,13.287738000000001
8000031,Bensheim,49.681329999999996,8.616717999999999
8000275,Neustadt(Weinstr)Hbf,49.349557,8.140757
8000176,Homburg(Saar)Hbf,49.328081,7.337032000000001
8001082,Bonn-Bad Godesberg,50.683924,7.1595580000000005
8000162,Herford,52.119609000000004,8.663642
8000331,Andernach,50.434546000000005,7.404837
8000084,Düren,50.809513,6.482454
8006713,Leverkusen Mitte,51.03151,6.991657000000001
8003368,Köln Messe/Deutz,50.940872,6.975
8000279,Nienburg(Weser),52.645568000000004,9.217755
8006076,Verden(Aller),52.920818000000004,9.237855
8000070,Delmenhorst,53.052789000000004,8.629761
8000291,Oldenburg(Oldb),53.144326,8.222712
8010334,Stendal,52.594725,11.854408
8002461,Gütersloh Hbf,51.906943,8.385075
8000252,Minden(Westf),52.290135,8.934728999999999
8098205,Leipzig Hbf (tief),51.345692,12.380429
8000377,Weinheim(Bergstr),49.553306,8.66535
8000631,Neu-Edingen/Friedrichsfeld,49.448671999999995,8.580123
8000058,Büchen,53.474976,10.623299000000001
8503000,Zürich HB,47.378177,8.540192999999999
8509411,Sargans,47.045361,9.445397999999999
8509002,Landquart,46.967442,9.554032000000001
8509000,Chur,46.853081,9.528925
8000118,Gelsenkirchen Hbf,51.5049,7.102458
8000307,Recklinghausen Hbf,51.616357,7.203488
8000237,Lübeck Hbf,53.867543999999995,10.669818
8000257,Worms Hbf,49.634937,8.356444
8000259,Mülheim(Ruhr)Hbf,51.431340999999996,6.88651
8070004,Frankfurt(M) Flughafen Regionalbf,50.051219,8.57125
